住所,緯度,経度,取得元
沖縄県那覇市前島3-23,26.223431,127.681412,GSI
沖縄県那覇市前島3丁目11-1,26.221792,127.681175,GSI
沖縄県那覇市前島3丁目24-1,26.222982,127.683723,GSI
沖縄県那覇市奥武山町51,26.207729,127.674568,GSI
沖縄県那覇市安里2丁目4-2-1,26.218262,127.694275,GSI
沖縄県那覇市松山1丁目27-11,26.220337,127.678307,GSI
沖縄県那覇市泉崎1丁目19-12,26.210516,127.678551,GSI
沖縄県那覇市牧志1丁目20-1,26.218517,127.683739,GSI
沖縄県那覇市牧志1丁目3-55,26.216105,127.687454,GSI
沖縄県那覇市真嘉比1丁目10-1,26.224489,127.699020,GSI
沖縄県那覇市西2丁目25-12,26.214394,127.667679,GSI
